{
  "records": [
    {
      "name": "Precision Plumbing Co",
      "slug": "precision-plumbing-co",
      "description": "Family-owned plumbing company serving the greater metro area for over 25 years. We specialize in residential and commercial plumbing services including repairs, installations, and emergency services. Our team of licensed plumbers is available 24/7.",
      "services": ["Emergency Repairs", "Pipe Installation", "Water Heater Service", "Drain Cleaning", "Fixture Installation"],
      "category": "Plumbing",
      "address": "123 Main Street",
      "city": "Springfield",
      "state": "IL",
      "zip": "62701",
      "lat": 39.7817,
      "lng": -89.6501,
      "google_place_id": "ChIJd8BlQ2BZwokRAFUEcm_qrcA",
      "google_business_url": "https://maps.google.com/?cid=14620651173705889652",
      "phone": "(555) 234-5678",
      "email": "info@precisionplumbing.example.com",
      "website": "https://precisionplumbing.example.com",
      "facebook": "https://facebook.com/precisionplumbing",
      "featured": true,
      "verified": true,
      "rating": 4.8,
      "review_count": 127
    },
    {
      "name": "Bright Spark Electricians",
      "slug": "bright-spark-electricians",
      "description": "Licensed and insured electrical contractors providing residential and commercial electrical services. From simple repairs to complete rewiring, we handle it all with safety and professionalism.",
      "services": ["Electrical Repairs", "Panel Upgrades", "Lighting Installation", "Generator Installation", "EV Charger Installation"],
      "category": "Electrical",
      "address": "456 Oak Avenue",
      "city": "Springfield",
      "state": "IL",
      "zip": "62702",
      "lat": 39.7900,
      "lng": -89.6440,
      "phone": "(555) 345-6789",
      "email": "hello@brightspark.example.com",
      "website": "https://brightspark.example.com",
      "featured": true,
      "verified": true,
      "rating": 4.9,
      "review_count": 89
    },
    {
      "name": "Green Thumb Landscaping",
      "slug": "green-thumb-landscaping",
      "description": "Transform your outdoor space with our professional landscaping services. We offer design, installation, and maintenance for residential and commercial properties.",
      "services": ["Lawn Care", "Garden Design", "Tree Trimming", "Irrigation Systems", "Hardscaping"],
      "category": "Landscaping",
      "address": "789 Garden Way",
      "city": "Springfield",
      "state": "IL",
      "zip": "62703",
      "lat": 39.7750,
      "lng": -89.6550,
      "phone": "(555) 456-7890",
      "email": "grow@greenthumb.example.com",
      "website": "https://greenthumb.example.com",
      "featured": true,
      "verified": false,
      "rating": 4.7,
      "review_count": 65
    },
    {
      "name": "Swift HVAC Solutions",
      "slug": "swift-hvac-solutions",
      "description": "Your comfort is our priority. We provide heating, cooling, and ventilation services for homes and businesses. Fast response times and competitive pricing.",
      "services": ["AC Repair", "Furnace Service", "Duct Cleaning", "System Installation", "Maintenance Plans"],
      "category": "HVAC",
      "address": "321 Climate Lane",
      "city": "Decatur",
      "state": "IL",
      "zip": "62521",
      "lat": 39.8403,
      "lng": -88.9548,
      "phone": "(555) 567-8901",
      "email": "service@swifthvac.example.com",
      "website": "https://swifthvac.example.com",
      "featured": false,
      "verified": true,
      "rating": 4.6,
      "review_count": 52
    },
    {
      "name": "Master Builders Construction",
      "slug": "master-builders-construction",
      "description": "Full-service construction company handling everything from home renovations to new construction. Licensed, bonded, and insured with 30 years of experience.",
      "services": ["Home Additions", "Kitchen Remodeling", "Bathroom Renovation", "Roofing", "Foundation Work"],
      "category": "Construction",
      "address": "555 Builder Blvd",
      "city": "Springfield",
      "state": "IL",
      "zip": "62704",
      "lat": 39.7680,
      "lng": -89.6700,
      "phone": "(555) 678-9012",
      "email": "build@masterbuilders.example.com",
      "website": "https://masterbuilders.example.com",
      "featured": false,
      "verified": true,
      "rating": 4.5,
      "review_count": 43
    },
    {
      "name": "Crystal Clear Window Cleaning",
      "slug": "crystal-clear-window-cleaning",
      "description": "Professional window cleaning for residential and commercial properties. We use eco-friendly products and guarantee streak-free results every time.",
      "services": ["Residential Windows", "Commercial Windows", "Pressure Washing", "Gutter Cleaning", "Solar Panel Cleaning"],
      "category": "Cleaning",
      "address": "888 Shine Street",
      "city": "Decatur",
      "state": "IL",
      "zip": "62522",
      "lat": 39.8500,
      "lng": -88.9600,
      "phone": "(555) 789-0123",
      "email": "shine@crystalclear.example.com",
      "website": "https://crystalclear.example.com",
      "featured": false,
      "verified": false,
      "rating": 4.4,
      "review_count": 31
    },
    {
      "name": "Safe & Sound Security",
      "slug": "safe-and-sound-security",
      "description": "Protect your home and business with our comprehensive security solutions. From alarm systems to camera installation, we've got you covered.",
      "services": ["Alarm Systems", "Security Cameras", "Smart Locks", "24/7 Monitoring", "Access Control"],
      "category": "Security",
      "address": "999 Protection Ave",
      "city": "Springfield",
      "state": "IL",
      "zip": "62701",
      "lat": 39.7850,
      "lng": -89.6480,
      "phone": "(555) 890-1234",
      "email": "secure@safesound.example.com",
      "website": "https://safesound.example.com",
      "featured": true,
      "verified": true,
      "rating": 4.9,
      "review_count": 78
    },
    {
      "name": "Pet Paradise Grooming",
      "slug": "pet-paradise-grooming",
      "description": "Premium pet grooming services in a stress-free environment. We treat your furry friends like family with gentle handling and quality care.",
      "services": ["Dog Grooming", "Cat Grooming", "Nail Trimming", "Teeth Cleaning", "Spa Treatments"],
      "category": "Pet Services",
      "address": "444 Paws Lane",
      "city": "Springfield",
      "state": "IL",
      "zip": "62702",
      "lat": 39.7920,
      "lng": -89.6420,
      "phone": "(555) 901-2345",
      "email": "woof@petparadise.example.com",
      "website": "https://petparadise.example.com",
      "facebook": "https://facebook.com/petparadise",
      "featured": false,
      "verified": true,
      "rating": 4.8,
      "review_count": 156
    },
    {
      "name": "Tech Repair Wizards",
      "slug": "tech-repair-wizards",
      "description": "Expert repair services for computers, phones, and tablets. Fast turnaround, competitive prices, and a 90-day warranty on all repairs.",
      "services": ["Phone Repair", "Computer Repair", "Tablet Repair", "Data Recovery", "Virus Removal"],
      "category": "Technology",
      "address": "777 Digital Drive",
      "city": "Decatur",
      "state": "IL",
      "zip": "62523",
      "lat": 39.8350,
      "lng": -88.9500,
      "phone": "(555) 012-3456",
      "email": "fix@techwizards.example.com",
      "website": "https://techwizards.example.com",
      "featured": false,
      "verified": false,
      "rating": 4.3,
      "review_count": 28
    },
    {
      "name": "Elegant Events Catering",
      "slug": "elegant-events-catering",
      "description": "From intimate gatherings to grand celebrations, we create memorable culinary experiences. Custom menus, professional staff, and impeccable service.",
      "services": ["Wedding Catering", "Corporate Events", "Private Parties", "Buffet Service", "Plated Dinners"],
      "category": "Catering",
      "address": "222 Feast Way",
      "city": "Springfield",
      "state": "IL",
      "zip": "62703",
      "lat": 39.7700,
      "lng": -89.6600,
      "phone": "(555) 123-4567",
      "email": "events@elegantcatering.example.com",
      "website": "https://elegantcatering.example.com",
      "facebook": "https://facebook.com/elegantevents",
      "featured": false,
      "verified": true,
      "rating": 4.7,
      "review_count": 94
    }
  ]
}
